2013/10/21 20:51:27
$GPGGA,205127,3957.0039,N,11618.0918,E,5,05,82.0,74608.1,M,5551.0,M,,*
2013/10/21 20:51:27
$GPGGA,205127,3957.0039,N,11618.0918,E,5,05,82.0,74608.1,M,5551.0,M,,*7
2013/10/21 20:51:27
$GPGGA,205127,3957.0039,N,11618.0918,E,5,05,82.0,74608.1,M,5551.0,M,,*7F
2013/10/21 20:51:27
$GPGGA,205127,3957.0039,N,11618.0918,E,5,05,82.0,74608.1,M,5551.0,M,,*7F
2013/10/21 20:51:27
$GPGGA,205127,3957.0039,N,11618.0918,E,5,05,82.0,74608.1,M,5551.0,M,,*7F

2013/10/21 20:51:28
$GPGGA,205128,3957.0039,N,11618.4199,E,3,11,91.4,-765.0,M,6868.9,M,,*
2013/10/21 20:51:28
$GPGGA,205128,3957.0039,N,11618.4199,E,3,11,91.4,-765.0,M,6868.9,M,,*5
2013/10/21 20:51:28
$GPGGA,205128,3957.0039,N,11618.4199,E,3,11,91.4,-765.0,M,6868.9,M,,*58
2013/10/21 20:51:28
$GPGGA,205128,3957.0039,N,11618.4199,E,3,11,91.4,-765.0,M,6868.9,M,,*58
2013/10/21 20:51:28
$GPGGA,205128,3957.0039,N,11618.4199,E,3,11,91.4,-765.0,M,6868.9,M,,*58

2013/10/21 20:51:29
$GPGGA,205129,3957.0042,N,11618.7480,E,2,06,1.5,33858.4,M,8187.2,M,,*
2013/10/21 20:51:29
$GPGGA,205129,3957.0042,N,11618.7480,E,2,06,1.5,33858.4,M,8187.2,M,,*4
2013/10/21 20:51:29
$GPGGA,205129,3957.0042,N,11618.7480,E,2,06,1.5,33858.4,M,8187.2,M,,*41
2013/10/21 20:51:29
$GPGGA,205129,3957.0042,N,11618.7480,E,2,06,1.5,33858.4,M,8187.2,M,,*41
2013/10/21 20:51:29
$GPGGA,205129,3957.0042,N,11618.7480,E,2,06,1.5,33858.4,M,8187.2,M,,*41

2013/10/21 20:51:30
$GPGGA,205130,3957.0042,N,11618.0762,E,0,01,10.9,68485.1,M,9505.4,M,,*
2013/10/21 20:51:30
$GPGGA,205130,3957.0042,N,11618.0762,E,0,01,10.9,68485.1,M,9505.4,M,,*7
2013/10/21 20:51:30
$GPGGA,205130,3957.0042,N,11618.0762,E,0,01,10.9,68485.1,M,9505.4,M,,*76
2013/10/21 20:51:30
$GPGGA,205130,3957.0042,N,11618.0762,E,0,01,10.9,68485.1,M,9505.4,M,,*76
2013/10/21 20:51:30
$GPGGA,205130,3957.0042,N,11618.0762,E,0,01,10.9,68485.1,M,9505.4,M,,*76

2013/10/21 20:51:31
$GPGGA,205131,3957.0042,N,11618.4043,E,5,07,20.4,-6888.0,M,-176.5,M,,*
2013/10/21 20:51:31
$GPGGA,205131,3957.0042,N,11618.4043,E,5,07,20.4,-6888.0,M,-176.5,M,,*7
2013/10/21 20:51:31
$GPGGA,205131,3957.0042,N,11618.4043,E,5,07,20.4,-6888.0,M,-176.5,M,,*7A
2013/10/21 20:51:31
$GPGGA,205131,3957.0042,N,11618.4043,E,5,07,20.4,-6888.0,M,-176.5,M,,*7A
2013/10/21 20:51:31
$GPGGA,205131,3957.0042,N,11618.4043,E,5,07,20.4,-6888.0,M,-176.5,M,,*7A

2013/10/21 20:51:32
$GPGGA,205132,3957.0044,N,11618.7324,E,3,02,29.8,27735.3,M,1141.8,M,,*
2013/10/21 20:51:32
$GPGGA,205132,3957.0044,N,11618.7324,E,3,02,29.8,27735.3,M,1141.8,M,,*7
2013/10/21 20:51:32
$GPGGA,205132,3957.0044,N,11618.7324,E,3,02,29.8,27735.3,M,1141.8,M,,*79
2013/10/21 20:51:32
$GPGGA,205132,3957.0044,N,11618.7324,E,3,02,29.8,27735.3,M,1141.8,M,,*79
2013/10/21 20:51:32
$GPGGA,205132,3957.0044,N,11618.7324,E,3,02,29.8,27735.3,M,1141.8,M,,*79

2013/10/21 20:51:33
$GPGGA,205133,3957.0044,N,11618.0605,E,1,08,39.2,62362.0,M,2460.0,M,,*
2013/10/21 20:51:33
$GPGGA,205133,3957.0044,N,11618.0605,E,1,08,39.2,62362.0,M,2460.0,M,,*7
2013/10/21 20:51:33
$GPGGA,205133,3957.0044,N,11618.0605,E,1,08,39.2,62362.0,M,2460.0,M,,*73
2013/10/21 20:51:33
$GPGGA,205133,3957.0044,N,11618.0605,E,1,08,39.2,62362.0,M,2460.0,M,,*73
2013/10/21 20:51:33
$GPGGA,205133,3957.0044,N,11618.0605,E,1,08,39.2,62362.0,M,2460.0,M,,*73

2013/10/21 20:51:34
$GPGGA,205134,3957.0046,N,11618.3877,E,0,03,48.7,96985.4,M,3778.3,M,,*
2013/10/21 20:51:34
$GPGGA,205134,3957.0046,N,11618.3877,E,0,03,48.7,96985.4,M,3778.3,M,,*7
2013/10/21 20:51:34
$GPGGA,205134,3957.0046,N,11618.3877,E,0,03,48.7,96985.4,M,3778.3,M,,*73
2013/10/21 20:51:34
$GPGGA,205134,3957.0046,N,11618.3877,E,0,03,48.7,96985.4,M,3778.3,M,,*73
2013/10/21 20:51:34
$GPGGA,205134,3957.0046,N,11618.3877,E,0,03,48.7,96985.4,M,3778.3,M,,*73

2013/10/21 20:51:35
$GPGGA,205135,3957.0046,N,11618.7158,E,4,09,58.1,21612.3,M,5096.2,M,,*
2013/10/21 20:51:35
$GPGGA,205135,3957.0046,N,11618.7158,E,4,09,58.1,21612.3,M,5096.2,M,,*7
2013/10/21 20:51:35
$GPGGA,205135,3957.0046,N,11618.7158,E,4,09,58.1,21612.3,M,5096.2,M,,*71
2013/10/21 20:51:35
$GPGGA,205135,3957.0046,N,11618.7158,E,4,09,58.1,21612.3,M,5096.2,M,,*71
2013/10/21 20:51:35
$GPGGA,205135,3957.0046,N,11618.7158,E,4,09,58.1,21612.3,M,5096.2,M,,*71

2013/10/21 20:51:36
$GPGGA,205136,3957.0049,N,11618.0439,E,3,04,67.6,56235.6,M,6414.4,M,,*
2013/10/21 20:51:36
$GPGGA,205136,3957.0049,N,11618.0439,E,3,04,67.6,56235.6,M,6414.4,M,,*7
2013/10/21 20:51:36
$GPGGA,205136,3957.0049,N,11618.0439,E,3,04,67.6,56235.6,M,6414.4,M,,*76
2013/10/21 20:51:36
$GPGGA,205136,3957.0049,N,11618.0439,E,3,04,67.6,56235.6,M,6414.4,M,,*76
2013/10/21 20:51:36
$GPGGA,205136,3957.0049,N,11618.0439,E,3,04,67.6,56235.6,M,6414.4,M,,*76

2013/10/21 20:51:37
$GPGGA,205137,3957.0049,N,11618.3721,E,1,10,77.0,90862.3,M,7732.7,M,,*
2013/10/21 20:51:37
$GPGGA,205137,3957.0049,N,11618.3721,E,1,10,77.0,90862.3,M,7732.7,M,,*7
2013/10/21 20:51:37
$GPGGA,205137,3957.0049,N,11618.3721,E,1,10,77.0,90862.3,M,7732.7,M,,*7C
2013/10/21 20:51:37
$GPGGA,205137,3957.0049,N,11618.3721,E,1,10,77.0,90862.3,M,7732.7,M,,*7C
2013/10/21 20:51:37
$GPGGA,205137,3957.0049,N,11618.3721,E,1,10,77.0,90862.3,M,7732.7,M,,*7C

2013/10/21 20:51:38
$GPGGA,205138,3957.0049,N,11618.7002,E,5,05,86.4,15489.3,M,9050.9,M,,*
2013/10/21 20:51:38
$GPGGA,205138,3957.0049,N,11618.7002,E,5,05,86.4,15489.3,M,9050.9,M,,*7
2013/10/21 20:51:38
$GPGGA,205138,3957.0049,N,11618.7002,E,5,05,86.4,15489.3,M,9050.9,M,,*7C
2013/10/21 20:51:38
$GPGGA,205138,3957.0049,N,11618.7002,E,5,05,86.4,15489.3,M,9050.9,M,,*7C
2013/10/21 20:51:38
$GPGGA,205138,3957.0049,N,11618.7002,E,5,05,86.4,15489.3,M,9050.9,M,,*7C

2013/10/21 20:51:39
$GPGGA,205139,3957.0051,N,11618.0283,E,4,11,95.9,50112.6,M,-631.0,M,,*
2013/10/21 20:51:39
$GPGGA,205139,3957.0051,N,11618.0283,E,4,11,95.9,50112.6,M,-631.0,M,,*6
2013/10/21 20:51:39
$GPGGA,205139,3957.0051,N,11618.0283,E,4,11,95.9,50112.6,M,-631.0,M,,*6C
2013/10/21 20:51:39
$GPGGA,205139,3957.0051,N,11618.0283,E,4,11,95.9,50112.6,M,-631.0,M,,*6C
2013/10/21 20:51:39
$GPGGA,205139,3957.0051,N,11618.0283,E,4,11,95.9,50112.6,M,-631.0,M,,*6C

2013/10/21 20:51:40
$GPGGA,205140,3957.0051,N,11618.3564,E,2,06,5.9,84739.3,M,687.3,M,,*
2013/10/21 20:51:40
$GPGGA,205140,3957.0051,N,11618.3564,E,2,06,5.9,84739.3,M,687.3,M,,*7
2013/10/21 20:51:40
$GPGGA,205140,3957.0051,N,11618.3564,E,2,06,5.9,84739.3,M,687.3,M,,*76
2013/10/21 20:51:40
$GPGGA,205140,3957.0051,N,11618.3564,E,2,06,5.9,84739.3,M,687.3,M,,*76
2013/10/21 20:51:40
$GPGGA,205140,3957.0051,N,11618.3564,E,2,06,5.9,84739.3,M,687.3,M,,*76

2013/10/21 20:51:41
$GPGGA,205141,3957.0054,N,11618.6846,E,1,01,15.4,9362.9,M,2005.5,M,,*
2013/10/21 20:51:41
$GPGGA,205141,3957.0054,N,11618.6846,E,1,01,15.4,9362.9,M,2005.5,M,,*4
2013/10/21 20:51:41
$GPGGA,205141,3957.0054,N,11618.6846,E,1,01,15.4,9362.9,M,2005.5,M,,*4F
2013/10/21 20:51:41
$GPGGA,205141,3957.0054,N,11618.6846,E,1,01,15.4,9362.9,M,2005.5,M,,*4F
2013/10/21 20:51:41
$GPGGA,205141,3957.0054,N,11618.6846,E,1,01,15.4,9362.9,M,2005.5,M,,*4F

2013/10/21 20:51:42
$GPGGA,205142,3957.0054,N,11618.0117,E,5,06,24.8,43989.6,M,3323.4,M,,*
2013/10/21 20:51:42
$GPGGA,205142,3957.0054,N,11618.0117,E,5,06,24.8,43989.6,M,3323.4,M,,*7
2013/10/21 20:51:42
$GPGGA,205142,3957.0054,N,11618.0117,E,5,06,24.8,43989.6,M,3323.4,M,,*73
2013/10/21 20:51:42
$GPGGA,205142,3957.0054,N,11618.0117,E,5,06,24.8,43989.6,M,3323.4,M,,*73
2013/10/21 20:51:42
$GPGGA,205142,3957.0054,N,11618.0117,E,5,06,24.8,43989.6,M,3323.4,M,,*73

2013/10/21 20:51:43
$GPGGA,205143,3957.0054,N,11618.3398,E,3,01,34.3,78612.9,M,4641.7,M,,*
2013/10/21 20:51:43
$GPGGA,205143,3957.0054,N,11618.3398,E,3,01,34.3,78612.9,M,4641.7,M,,*7
2013/10/21 20:51:43
$GPGGA,205143,3957.0054,N,11618.3398,E,3,01,34.3,78612.9,M,4641.7,M,,*70
2013/10/21 20:51:43
$GPGGA,205143,3957.0054,N,11618.3398,E,3,01,34.3,78612.9,M,4641.7,M,,*70
2013/10/21 20:51:43
$GPGGA,205143,3957.0054,N,11618.3398,E,3,01,34.3,78612.9,M,4641.7,M,,*70

2013/10/21 20:51:44
$GPGGA,205144,3957.0056,N,11618.6680,E,2,07,43.7,3239.8,M,5959.9,M,,*
2013/10/21 20:51:44
$GPGGA,205144,3957.0056,N,11618.6680,E,2,07,43.7,3239.8,M,5959.9,M,,*4
2013/10/21 20:51:44
$GPGGA,205144,3957.0056,N,11618.6680,E,2,07,43.7,3239.8,M,5959.9,M,,*46
2013/10/21 20:51:44
$GPGGA,205144,3957.0056,N,11618.6680,E,2,07,43.7,3239.8,M,5959.9,M,,*46
2013/10/21 20:51:44
$GPGGA,205144,3957.0056,N,11618.6680,E,2,07,43.7,3239.8,M,5959.9,M,,*46

2013/10/21 20:51:45
$GPGGA,205145,3957.0056,N,11618.9961,E,0,02,53.1,37866.5,M,7278.1,M,,*
2013/10/21 20:51:45
$GPGGA,205145,3957.0056,N,11618.9961,E,0,02,53.1,37866.5,M,7278.1,M,,*7
2013/10/21 20:51:45
$GPGGA,205145,3957.0056,N,11618.9961,E,0,02,53.1,37866.5,M,7278.1,M,,*70
2013/10/21 20:51:45
$GPGGA,205145,3957.0056,N,11618.9961,E,0,02,53.1,37866.5,M,7278.1,M,,*70
2013/10/21 20:51:45
$GPGGA,205145,3957.0056,N,11618.9961,E,0,02,53.1,37866.5,M,7278.1,M,,*70

2013/10/21 20:51:46
$GPGGA,205146,3957.0059,N,11618.3242,E,5,08,62.6,72489.9,M,8596.1,M,,*
2013/10/21 20:51:46
$GPGGA,205146,3957.0059,N,11618.3242,E,5,08,62.6,72489.9,M,8596.1,M,,*7
2013/10/21 20:51:46
$GPGGA,205146,3957.0059,N,11618.3242,E,5,08,62.6,72489.9,M,8596.1,M,,*7E
2013/10/21 20:51:46
$GPGGA,205146,3957.0059,N,11618.3242,E,5,08,62.6,72489.9,M,8596.1,M,,*7E
2013/10/21 20:51:46
$GPGGA,205146,3957.0059,N,11618.3242,E,5,08,62.6,72489.9,M,8596.1,M,,*7E

2013/10/21 20:51:47
$GPGGA,205147,3957.0059,N,11618.6523,E,3,03,72.0,-2883.2,M,9914.3,M,,*
2013/10/21 20:51:47
$GPGGA,205147,3957.0059,N,11618.6523,E,3,03,72.0,-2883.2,M,9914.3,M,,*6
2013/10/21 20:51:47
$GPGGA,205147,3957.0059,N,11618.6523,E,3,03,72.0,-2883.2,M,9914.3,M,,*62
2013/10/21 20:51:47
$GPGGA,205147,3957.0059,N,11618.6523,E,3,03,72.0,-2883.2,M,9914.3,M,,*62
2013/10/21 20:51:47
$GPGGA,205147,3957.0059,N,11618.6523,E,3,03,72.0,-2883.2,M,9914.3,M,,*62

2013/10/21 20:51:48
$GPGGA,205148,3957.0059,N,11618.9805,E,1,09,81.5,31740.1,M,232.7,M,,*
2013/10/21 20:51:48
$GPGGA,205148,3957.0059,N,11618.9805,E,1,09,81.5,31740.1,M,232.7,M,,*4
2013/10/21 20:51:48
$GPGGA,205148,3957.0059,N,11618.9805,E,1,09,81.5,31740.1,M,232.7,M,,*46
2013/10/21 20:51:48
$GPGGA,205148,3957.0059,N,11618.9805,E,1,09,81.5,31740.1,M,232.7,M,,*46
2013/10/21 20:51:48
$GPGGA,205148,3957.0059,N,11618.9805,E,1,09,81.5,31740.1,M,232.7,M,,*46

2013/10/21 20:51:49
$GPGGA,205149,3957.0061,N,11618.3086,E,0,04,90.9,66366.8,M,1551.0,M,,*
2013/10/21 20:51:49
$GPGGA,205149,3957.0061,N,11618.3086,E,0,04,90.9,66366.8,M,1551.0,M,,*7
2013/10/21 20:51:49
$GPGGA,205149,3957.0061,N,11618.3086,E,0,04,90.9,66366.8,M,1551.0,M,,*7A
2013/10/21 20:51:49
$GPGGA,205149,3957.0061,N,11618.3086,E,0,04,90.9,66366.8,M,1551.0,M,,*7A
2013/10/21 20:51:49
$GPGGA,205149,3957.0061,N,11618.3086,E,0,04,90.9,66366.8,M,1551.0,M,,*7A

2013/10/21 20:51:50
$GPGGA,205150,3957.0061,N,11618.6367,E,4,10,0.9,-9006.2,M,2868.9,M,,*
2013/10/21 20:51:50
$GPGGA,205150,3957.0061,N,11618.6367,E,4,10,0.9,-9006.2,M,2868.9,M,,*5
2013/10/21 20:51:50
$GPGGA,205150,3957.0061,N,11618.6367,E,4,10,0.9,-9006.2,M,2868.9,M,,*55
2013/10/21 20:51:50
$GPGGA,205150,3957.0061,N,11618.6367,E,4,10,0.9,-9006.2,M,2868.9,M,,*55
2013/10/21 20:51:50
$GPGGA,205150,3957.0061,N,11618.6367,E,4,10,0.9,-9006.2,M,2868.9,M,,*55

2013/10/21 20:51:51
$GPGGA,205151,3957.0063,N,11618.9648,E,3,05,10.4,25617.1,M,4187.1,M,,*
2013/10/21 20:51:51
$GPGGA,205151,3957.0063,N,11618.9648,E,3,05,10.4,25617.1,M,4187.1,M,,*7
2013/10/21 20:51:51
$GPGGA,205151,3957.0063,N,11618.9648,E,3,05,10.4,25617.1,M,4187.1,M,,*7E
2013/10/21 20:51:51
$GPGGA,205151,3957.0063,N,11618.9648,E,3,05,10.4,25617.1,M,4187.1,M,,*7E
2013/10/21 20:51:51
$GPGGA,205151,3957.0063,N,11618.9648,E,3,05,10.4,25617.1,M,4187.1,M,,*7E

2013/10/21 20:51:52
$GPGGA,205152,3957.0063,N,11618.2920,E,1,11,19.8,60243.8,M,5505.4,M,,*
2013/10/21 20:51:52
$GPGGA,205152,3957.0063,N,11618.2920,E,1,11,19.8,60243.8,M,5505.4,M,,*7
2013/10/21 20:51:52
$GPGGA,205152,3957.0063,N,11618.2920,E,1,11,19.8,60243.8,M,5505.4,M,,*72
2013/10/21 20:51:52
$GPGGA,205152,3957.0063,N,11618.2920,E,1,11,19.8,60243.8,M,5505.4,M,,*72
2013/10/21 20:51:52
$GPGGA,205152,3957.0063,N,11618.2920,E,1,11,19.8,60243.8,M,5505.4,M,,*72

2013/10/21 20:51:53
$GPGGA,205153,3957.0063,N,11618.6201,E,5,06,29.3,94867.2,M,6823.6,M,,*
2013/10/21 20:51:53
$GPGGA,205153,3957.0063,N,11618.6201,E,5,06,29.3,94867.2,M,6823.6,M,,*7
2013/10/21 20:51:53
$GPGGA,205153,3957.0063,N,11618.6201,E,5,06,29.3,94867.2,M,6823.6,M,,*70
2013/10/21 20:51:53
$GPGGA,205153,3957.0063,N,11618.6201,E,5,06,29.3,94867.2,M,6823.6,M,,*70
2013/10/21 20:51:53
$GPGGA,205153,3957.0063,N,11618.6201,E,5,06,29.3,94867.2,M,6823.6,M,,*70

2013/10/21 20:51:54
$GPGGA,205154,3957.0066,N,11618.9482,E,4,01,38.7,19494.1,M,8141.5,M,,*
2013/10/21 20:51:54
$GPGGA,205154,3957.0066,N,11618.9482,E,4,01,38.7,19494.1,M,8141.5,M,,*7
2013/10/21 20:51:54
$GPGGA,205154,3957.0066,N,11618.9482,E,4,01,38.7,19494.1,M,8141.5,M,,*74
2013/10/21 20:51:54
$GPGGA,205154,3957.0066,N,11618.9482,E,4,01,38.7,19494.1,M,8141.5,M,,*74
2013/10/21 20:51:54
$GPGGA,205154,3957.0066,N,11618.9482,E,4,01,38.7,19494.1,M,8141.5,M,,*74

2013/10/21 20:51:55
$GPGGA,205155,3957.0066,N,11618.2764,E,2,07,48.2,54117.4,M,9459.8,M,,*
2013/10/21 20:51:55
$GPGGA,205155,3957.0066,N,11618.2764,E,2,07,48.2,54117.4,M,9459.8,M,,*7
2013/10/21 20:51:55
$GPGGA,205155,3957.0066,N,11618.2764,E,2,07,48.2,54117.4,M,9459.8,M,,*75
2013/10/21 20:51:55
$GPGGA,205155,3957.0066,N,11618.2764,E,2,07,48.2,54117.4,M,9459.8,M,,*75
2013/10/21 20:51:55
$GPGGA,205155,3957.0066,N,11618.2764,E,2,07,48.2,54117.4,M,9459.8,M,,*75

2013/10/21 20:51:56
$GPGGA,205156,3957.0068,N,11618.6045,E,1,02,57.6,88744.1,M,-221.8,M,,*
2013/10/21 20:51:56
$GPGGA,205156,3957.0068,N,11618.6045,E,1,02,57.6,88744.1,M,-221.8,M,,*6
2013/10/21 20:51:56
$GPGGA,205156,3957.0068,N,11618.6045,E,1,02,57.6,88744.1,M,-221.8,M,,*6D
2013/10/21 20:51:56
$GPGGA,205156,3957.0068,N,11618.6045,E,1,02,57.6,88744.1,M,-221.8,M,,*6D
2013/10/21 20:51:56
$GPGGA,205156,3957.0068,N,11618.6045,E,1,02,57.6,88744.1,M,-221.8,M,,*6D

2013/10/21 20:51:57
$GPGGA,205157,3957.0068,N,11618.9326,E,5,08,67.0,13371.0,M,1096.1,M,,*
2013/10/21 20:51:57
$GPGGA,205157,3957.0068,N,11618.9326,E,5,08,67.0,13371.0,M,1096.1,M,,*7
2013/10/21 20:51:57
$GPGGA,205157,3957.0068,N,11618.9326,E,5,08,67.0,13371.0,M,1096.1,M,,*74
2013/10/21 20:51:57
$GPGGA,205157,3957.0068,N,11618.9326,E,5,08,67.0,13371.0,M,1096.1,M,,*74
2013/10/21 20:51:57
$GPGGA,205157,3957.0068,N,11618.9326,E,5,08,67.0,13371.0,M,1096.1,M,,*74

2013/10/21 20:51:58
$GPGGA,205158,3957.0068,N,11618.2607,E,4,03,76.5,47994.4,M,2414.4,M,,*
2013/10/21 20:51:58
$GPGGA,205158,3957.0068,N,11618.2607,E,4,03,76.5,47994.4,M,2414.4,M,,*7
2013/10/21 20:51:58
$GPGGA,205158,3957.0068,N,11618.2607,E,4,03,76.5,47994.4,M,2414.4,M,,*75
2013/10/21 20:51:58
$GPGGA,205158,3957.0068,N,11618.2607,E,4,03,76.5,47994.4,M,2414.4,M,,*75
2013/10/21 20:51:58
$GPGGA,205158,3957.0068,N,11618.2607,E,4,03,76.5,47994.4,M,2414.4,M,,*75

2013/10/21 20:51:59
$GPGGA,205159,3957.0071,N,11618.5889,E,2,09,85.9,82621.1,M,3732.6,M,,*
2013/10/21 20:51:59
$GPGGA,205159,3957.0071,N,11618.5889,E,2,09,85.9,82621.1,M,3732.6,M,,*7
2013/10/21 20:51:59
$GPGGA,205159,3957.0071,N,11618.5889,E,2,09,85.9,82621.1,M,3732.6,M,,*76
2013/10/21 20:51:59
$GPGGA,205159,3957.0071,N,11618.5889,E,2,09,85.9,82621.1,M,3732.6,M,,*76
2013/10/21 20:51:59
$GPGGA,205159,3957.0071,N,11618.5889,E,2,09,85.9,82621.1,M,3732.6,M,,*76

2013/10/21 20:52:00
$GPGGA,205200,3957.0012,N,11618.2354,E,0,08,25.9,19725.7,M,2960.2,M,,*
2013/10/21 20:52:00
$GPGGA,205200,3957.0012,N,11618.2354,E,0,08,25.9,19725.7,M,2960.2,M,,*7
2013/10/21 20:52:00
$GPGGA,205200,3957.0012,N,11618.2354,E,0,08,25.9,19725.7,M,2960.2,M,,*74
2013/10/21 20:52:00
$GPGGA,205200,3957.0012,N,11618.2354,E,0,08,25.9,19725.7,M,2960.2,M,,*74
2013/10/21 20:52:00
$GPGGA,205200,3957.0012,N,11618.2354,E,0,08,25.9,19725.7,M,2960.2,M,,*74

2013/10/21 20:52:01
$GPGGA,205201,3957.0012,N,11618.5635,E,4,03,35.3,54349.0,M,4278.4,M,,*
2013/10/21 20:52:01
$GPGGA,205201,3957.0012,N,11618.5635,E,4,03,35.3,54349.0,M,4278.4,M,,*7
2013/10/21 20:52:01
$GPGGA,205201,3957.0012,N,11618.5635,E,4,03,35.3,54349.0,M,4278.4,M,,*76
2013/10/21 20:52:01
$GPGGA,205201,3957.0012,N,11618.5635,E,4,03,35.3,54349.0,M,4278.4,M,,*76
2013/10/21 20:52:01
$GPGGA,205201,3957.0012,N,11618.5635,E,4,03,35.3,54349.0,M,4278.4,M,,*76

2013/10/21 20:52:02
$GPGGA,205202,3957.0015,N,11618.8916,E,3,09,44.8,88975.8,M,5596.4,M,,*
2013/10/21 20:52:02
$GPGGA,205202,3957.0015,N,11618.8916,E,3,09,44.8,88975.8,M,5596.4,M,,*7
2013/10/21 20:52:02
$GPGGA,205202,3957.0015,N,11618.8916,E,3,09,44.8,88975.8,M,5596.4,M,,*7B
2013/10/21 20:52:02
$GPGGA,205202,3957.0015,N,11618.8916,E,3,09,44.8,88975.8,M,5596.4,M,,*7B
2013/10/21 20:52:02
$GPGGA,205202,3957.0015,N,11618.8916,E,3,09,44.8,88975.8,M,5596.4,M,,*7B

2013/10/21 20:52:03
$GPGGA,205203,3957.0015,N,11618.2197,E,1,04,54.2,13602.7,M,6914.6,M,,*
2013/10/21 20:52:03
$GPGGA,205203,3957.0015,N,11618.2197,E,1,04,54.2,13602.7,M,6914.6,M,,*7
2013/10/21 20:52:03
$GPGGA,205203,3957.0015,N,11618.2197,E,1,04,54.2,13602.7,M,6914.6,M,,*70
2013/10/21 20:52:03
$GPGGA,205203,3957.0015,N,11618.2197,E,1,04,54.2,13602.7,M,6914.6,M,,*70
2013/10/21 20:52:03
$GPGGA,205203,3957.0015,N,11618.2197,E,1,04,54.2,13602.7,M,6914.6,M,,*70

2013/10/21 20:52:04
$GPGGA,205204,3957.0015,N,11618.5479,E,0,10,63.6,48226.0,M,8232.8,M,,*
2013/10/21 20:52:04
$GPGGA,205204,3957.0015,N,11618.5479,E,0,10,63.6,48226.0,M,8232.8,M,,*7
2013/10/21 20:52:04
$GPGGA,205204,3957.0015,N,11618.5479,E,0,10,63.6,48226.0,M,8232.8,M,,*75
2013/10/21 20:52:04
$GPGGA,205204,3957.0015,N,11618.5479,E,0,10,63.6,48226.0,M,8232.8,M,,*75
2013/10/21 20:52:04
$GPGGA,205204,3957.0015,N,11618.5479,E,0,10,63.6,48226.0,M,8232.8,M,,*75

2013/10/21 20:52:05
$GPGGA,205205,3957.0017,N,11618.8760,E,4,05,73.1,82852.7,M,9550.8,M,,*
2013/10/21 20:52:05
$GPGGA,205205,3957.0017,N,11618.8760,E,4,05,73.1,82852.7,M,9550.8,M,,*7
2013/10/21 20:52:05
$GPGGA,205205,3957.0017,N,11618.8760,E,4,05,73.1,82852.7,M,9550.8,M,,*7C
2013/10/21 20:52:05
$GPGGA,205205,3957.0017,N,11618.8760,E,4,05,73.1,82852.7,M,9550.8,M,,*7C
2013/10/21 20:52:05
$GPGGA,205205,3957.0017,N,11618.8760,E,4,05,73.1,82852.7,M,9550.8,M,,*7C

2013/10/21 20:52:06
$GPGGA,205206,3957.0017,N,11618.2041,E,2,11,82.5,7476.3,M,-130.8,M,,*
2013/10/21 20:52:06
$GPGGA,205206,3957.0017,N,11618.2041,E,2,11,82.5,7476.3,M,-130.8,M,,*5
2013/10/21 20:52:06
$GPGGA,205206,3957.0017,N,11618.2041,E,2,11,82.5,7476.3,M,-130.8,M,,*5D
2013/10/21 20:52:06
$GPGGA,205206,3957.0017,N,11618.2041,E,2,11,82.5,7476.3,M,-130.8,M,,*5D
2013/10/21 20:52:06
$GPGGA,205206,3957.0017,N,11618.2041,E,2,11,82.5,7476.3,M,-130.8,M,,*5D

2013/10/21 20:52:07
$GPGGA,205207,3957.0020,N,11618.5313,E,1,06,92.0,42103.0,M,1187.4,M,,*
2013/10/21 20:52:07
$GPGGA,205207,3957.0020,N,11618.5313,E,1,06,92.0,42103.0,M,1187.4,M,,*7
2013/10/21 20:52:07
$GPGGA,205207,3957.0020,N,11618.5313,E,1,06,92.0,42103.0,M,1187.4,M,,*73
2013/10/21 20:52:07
$GPGGA,205207,3957.0020,N,11618.5313,E,1,06,92.0,42103.0,M,1187.4,M,,*73
2013/10/21 20:52:07
$GPGGA,205207,3957.0020,N,11618.5313,E,1,06,92.0,42103.0,M,1187.4,M,,*73

2013/10/21 20:52:08
$GPGGA,205208,3957.0020,N,11618.8594,E,5,01,2.0,76726.3,M,2505.7,M,,*
2013/10/21 20:52:08
$GPGGA,205208,3957.0020,N,11618.8594,E,5,01,2.0,76726.3,M,2505.7,M,,*4
2013/10/21 20:52:08
$GPGGA,205208,3957.0020,N,11618.8594,E,5,01,2.0,76726.3,M,2505.7,M,,*49
2013/10/21 20:52:08
$GPGGA,205208,3957.0020,N,11618.8594,E,5,01,2.0,76726.3,M,2505.7,M,,*49
2013/10/21 20:52:08
$GPGGA,205208,3957.0020,N,11618.8594,E,5,01,2.0,76726.3,M,2505.7,M,,*49

2013/10/21 20:52:09
$GPGGA,205209,3957.0020,N,11618.1875,E,4,07,11.4,1353.2,M,3823.6,M,,*
2013/10/21 20:52:09
$GPGGA,205209,3957.0020,N,11618.1875,E,4,07,11.4,1353.2,M,3823.6,M,,*4
2013/10/21 20:52:09
$GPGGA,205209,3957.0020,N,11618.1875,E,4,07,11.4,1353.2,M,3823.6,M,,*4C
2013/10/21 20:52:09
$GPGGA,205209,3957.0020,N,11618.1875,E,4,07,11.4,1353.2,M,3823.6,M,,*4C
2013/10/21 20:52:09
$GPGGA,205209,3957.0020,N,11618.1875,E,4,07,11.4,1353.2,M,3823.6,M,,*4C

2013/10/21 20:52:10
$GPGGA,205210,3957.0022,N,11618.5156,E,2,02,20.9,35979.9,M,5141.8,M,,*
2013/10/21 20:52:10
$GPGGA,205210,3957.0022,N,11618.5156,E,2,02,20.9,35979.9,M,5141.8,M,,*7
2013/10/21 20:52:10
$GPGGA,205210,3957.0022,N,11618.5156,E,2,02,20.9,35979.9,M,5141.8,M,,*7D
2013/10/21 20:52:10
$GPGGA,205210,3957.0022,N,11618.5156,E,2,02,20.9,35979.9,M,5141.8,M,,*7D
2013/10/21 20:52:10
$GPGGA,205210,3957.0022,N,11618.5156,E,2,02,20.9,35979.9,M,5141.8,M,,*7D

2013/10/21 20:52:11
$GPGGA,205211,3957.0022,N,11618.8438,E,0,08,30.3,70603.3,M,6460.1,M,,*
2013/10/21 20:52:11
$GPGGA,205211,3957.0022,N,11618.8438,E,0,08,30.3,70603.3,M,6460.1,M,,*7
2013/10/21 20:52:11
$GPGGA,205211,3957.0022,N,11618.8438,E,0,08,30.3,70603.3,M,6460.1,M,,*7A
2013/10/21 20:52:11
$GPGGA,205211,3957.0022,N,11618.8438,E,0,08,30.3,70603.3,M,6460.1,M,,*7A
2013/10/21 20:52:11
$GPGGA,205211,3957.0022,N,11618.8438,E,0,08,30.3,70603.3,M,6460.1,M,,*7A

2013/10/21 20:52:12
$GPGGA,205212,3957.0024,N,11618.1719,E,5,03,39.8,-4769.8,M,7778.3,M,,*
2013/10/21 20:52:12
$GPGGA,205212,3957.0024,N,11618.1719,E,5,03,39.8,-4769.8,M,7778.3,M,,*6
2013/10/21 20:52:12
$GPGGA,205212,3957.0024,N,11618.1719,E,5,03,39.8,-4769.8,M,7778.3,M,,*6B
2013/10/21 20:52:12
$GPGGA,205212,3957.0024,N,11618.1719,E,5,03,39.8,-4769.8,M,7778.3,M,,*6B
2013/10/21 20:52:12
$GPGGA,205212,3957.0024,N,11618.1719,E,5,03,39.8,-4769.8,M,7778.3,M,,*6B

2013/10/21 20:52:13
$GPGGA,205213,3957.0024,N,11618.5000,E,3,09,49.2,29853.5,M,9096.2,M,,*
2013/10/21 20:52:13
$GPGGA,205213,3957.0024,N,11618.5000,E,3,09,49.2,29853.5,M,9096.2,M,,*7
2013/10/21 20:52:13
$GPGGA,205213,3957.0024,N,11618.5000,E,3,09,49.2,29853.5,M,9096.2,M,,*71
2013/10/21 20:52:13
$GPGGA,205213,3957.0024,N,11618.5000,E,3,09,49.2,29853.5,M,9096.2,M,,*71
2013/10/21 20:52:13
$GPGGA,205213,3957.0024,N,11618.5000,E,3,09,49.2,29853.5,M,9096.2,M,,*71

2013/10/21 20:52:14
$GPGGA,205214,3957.0024,N,11618.8281,E,2,04,58.7,64480.3,M,-585.3,M,,*
2013/10/21 20:52:14
$GPGGA,205214,3957.0024,N,11618.8281,E,2,04,58.7,64480.3,M,-585.3,M,,*6
2013/10/21 20:52:14
$GPGGA,205214,3957.0024,N,11618.8281,E,2,04,58.7,64480.3,M,-585.3,M,,*66
2013/10/21 20:52:14
$GPGGA,205214,3957.0024,N,11618.8281,E,2,04,58.7,64480.3,M,-585.3,M,,*66
2013/10/21 20:52:14
$GPGGA,205214,3957.0024,N,11618.8281,E,2,04,58.7,64480.3,M,-585.3,M,,*66

2013/10/21 20:52:15
$GPGGA,205215,3957.0027,N,11618.1563,E,0,10,68.1,99103.6,M,732.9,M,,*
2013/10/21 20:52:15
$GPGGA,205215,3957.0027,N,11618.1563,E,0,10,68.1,99103.6,M,732.9,M,,*4
2013/10/21 20:52:15
$GPGGA,205215,3957.0027,N,11618.1563,E,0,10,68.1,99103.6,M,732.9,M,,*44
2013/10/21 20:52:15
$GPGGA,205215,3957.0027,N,11618.1563,E,0,10,68.1,99103.6,M,732.9,M,,*44
2013/10/21 20:52:15
$GPGGA,205215,3957.0027,N,11618.1563,E,0,10,68.1,99103.6,M,732.9,M,,*44

2013/10/21 20:52:16
$GPGGA,205216,3957.0027,N,11618.4834,E,4,05,77.5,23730.5,M,2051.2,M,,*
2013/10/21 20:52:16
$GPGGA,205216,3957.0027,N,11618.4834,E,4,05,77.5,23730.5,M,2051.2,M,,*7
2013/10/21 20:52:16
$GPGGA,205216,3957.0027,N,11618.4834,E,4,05,77.5,23730.5,M,2051.2,M,,*78
2013/10/21 20:52:16
$GPGGA,205216,3957.0027,N,11618.4834,E,4,05,77.5,23730.5,M,2051.2,M,,*78
2013/10/21 20:52:16
$GPGGA,205216,3957.0027,N,11618.4834,E,4,05,77.5,23730.5,M,2051.2,M,,*78

2013/10/21 20:52:17
$GPGGA,205217,3957.0029,N,11618.8115,E,3,11,87.0,58357.2,M,3369.1,M,,*
2013/10/21 20:52:17
$GPGGA,205217,3957.0029,N,11618.8115,E,3,11,87.0,58357.2,M,3369.1,M,,*7
2013/10/21 20:52:17
$GPGGA,205217,3957.0029,N,11618.8115,E,3,11,87.0,58357.2,M,3369.1,M,,*7D
2013/10/21 20:52:17
$GPGGA,205217,3957.0029,N,11618.8115,E,3,11,87.0,58357.2,M,3369.1,M,,*7D
2013/10/21 20:52:17
$GPGGA,205217,3957.0029,N,11618.8115,E,3,11,87.0,58357.2,M,3369.1,M,,*7D

2013/10/21 20:52:18
$GPGGA,205218,3957.0029,N,11618.1396,E,1,06,96.4,92980.6,M,4687.3,M,,*
2013/10/21 20:52:18
$GPGGA,205218,3957.0029,N,11618.1396,E,1,06,96.4,92980.6,M,4687.3,M,,*7
2013/10/21 20:52:18
$GPGGA,205218,3957.0029,N,11618.1396,E,1,06,96.4,92980.6,M,4687.3,M,,*70
2013/10/21 20:52:18
$GPGGA,205218,3957.0029,N,11618.1396,E,1,06,96.4,92980.6,M,4687.3,M,,*70
2013/10/21 20:52:18
$GPGGA,205218,3957.0029,N,11618.1396,E,1,06,96.4,92980.6,M,4687.3,M,,*70

2013/10/21 20:52:19
$GPGGA,205219,3957.0029,N,11618.4678,E,0,01,6.5,17607.5,M,6005.6,M,,*
2013/10/21 20:52:19
$GPGGA,205219,3957.0029,N,11618.4678,E,0,01,6.5,17607.5,M,6005.6,M,,*4
2013/10/21 20:52:19
$GPGGA,205219,3957.0029,N,11618.4678,E,0,01,6.5,17607.5,M,6005.6,M,,*4A
2013/10/21 20:52:19
$GPGGA,205219,3957.0029,N,11618.4678,E,0,01,6.5,17607.5,M,6005.6,M,,*4A
2013/10/21 20:52:19
$GPGGA,205219,3957.0029,N,11618.4678,E,0,01,6.5,17607.5,M,6005.6,M,,*4A

2013/10/21 20:52:20
$GPGGA,205220,3957.0032,N,11618.7959,E,4,07,15.9,52230.8,M,7323.5,M,,*
2013/10/21 20:52:20
$GPGGA,205220,3957.0032,N,11618.7959,E,4,07,15.9,52230.8,M,7323.5,M,,*7
2013/10/21 20:52:20
$GPGGA,205220,3957.0032,N,11618.7959,E,4,07,15.9,52230.8,M,7323.5,M,,*70
2013/10/21 20:52:20
$GPGGA,205220,3957.0032,N,11618.7959,E,4,07,15.9,52230.8,M,7323.5,M,,*70
2013/10/21 20:52:20
$GPGGA,205220,3957.0032,N,11618.7959,E,4,07,15.9,52230.8,M,7323.5,M,,*70

2013/10/21 20:52:21
$GPGGA,205221,3957.0032,N,11618.1240,E,2,02,25.3,86857.5,M,8641.7,M,,*
2013/10/21 20:52:21
$GPGGA,205221,3957.0032,N,11618.1240,E,2,02,25.3,86857.5,M,8641.7,M,,*7
2013/10/21 20:52:21
$GPGGA,205221,3957.0032,N,11618.1240,E,2,02,25.3,86857.5,M,8641.7,M,,*7D
2013/10/21 20:52:21
$GPGGA,205221,3957.0032,N,11618.1240,E,2,02,25.3,86857.5,M,8641.7,M,,*7D
2013/10/21 20:52:21
$GPGGA,205221,3957.0032,N,11618.1240,E,2,02,25.3,86857.5,M,8641.7,M,,*7D

2013/10/21 20:52:22
$GPGGA,205222,3957.0034,N,11618.4521,E,1,08,34.8,11481.1,M,9960.0,M,,*
2013/10/21 20:52:22
$GPGGA,205222,3957.0034,N,11618.4521,E,1,08,34.8,11481.1,M,9960.0,M,,*7
2013/10/21 20:52:22
$GPGGA,205222,3957.0034,N,11618.4521,E,1,08,34.8,11481.1,M,9960.0,M,,*78
2013/10/21 20:52:22
$GPGGA,205222,3957.0034,N,11618.4521,E,1,08,34.8,11481.1,M,9960.0,M,,*78
2013/10/21 20:52:22
$GPGGA,205222,3957.0034,N,11618.4521,E,1,08,34.8,11481.1,M,9960.0,M,,*78

2013/10/21 20:52:23
$GPGGA,205223,3957.0034,N,11618.7803,E,5,03,44.2,46107.8,M,278.4,M,,*
2013/10/21 20:52:23
$GPGGA,205223,3957.0034,N,11618.7803,E,5,03,44.2,46107.8,M,278.4,M,,*4
2013/10/21 20:52:23
$GPGGA,205223,3957.0034,N,11618.7803,E,5,03,44.2,46107.8,M,278.4,M,,*4A
2013/10/21 20:52:23
$GPGGA,205223,3957.0034,N,11618.7803,E,5,03,44.2,46107.8,M,278.4,M,,*4A
2013/10/21 20:52:23
$GPGGA,205223,3957.0034,N,11618.7803,E,5,03,44.2,46107.8,M,278.4,M,,*4A

2013/10/21 20:52:24
$GPGGA,205224,3957.0034,N,11618.1084,E,4,09,53.7,80734.5,M,1596.3,M,,*
2013/10/21 20:52:24
$GPGGA,205224,3957.0034,N,11618.1084,E,4,09,53.7,80734.5,M,1596.3,M,,*7
2013/10/21 20:52:24
$GPGGA,205224,3957.0034,N,11618.1084,E,4,09,53.7,80734.5,M,1596.3,M,,*74
2013/10/21 20:52:24
$GPGGA,205224,3957.0034,N,11618.1084,E,4,09,53.7,80734.5,M,1596.3,M,,*74
2013/10/21 20:52:24
$GPGGA,205224,3957.0034,N,11618.1084,E,4,09,53.7,80734.5,M,1596.3,M,,*74

2013/10/21 20:52:25
$GPGGA,205225,3957.0037,N,11618.4355,E,2,04,63.1,5358.0,M,2914.5,M,,*
2013/10/21 20:52:25
$GPGGA,205225,3957.0037,N,11618.4355,E,2,04,63.1,5358.0,M,2914.5,M,,*4
2013/10/21 20:52:25
$GPGGA,205225,3957.0037,N,11618.4355,E,2,04,63.1,5358.0,M,2914.5,M,,*47
2013/10/21 20:52:25
$GPGGA,205225,3957.0037,N,11618.4355,E,2,04,63.1,5358.0,M,2914.5,M,,*47
2013/10/21 20:52:25
$GPGGA,205225,3957.0037,N,11618.4355,E,2,04,63.1,5358.0,M,2914.5,M,,*47

2013/10/21 20:52:26
$GPGGA,205226,3957.0037,N,11618.7637,E,1,10,72.6,39984.8,M,4232.8,M,,*
2013/10/21 20:52:26
$GPGGA,205226,3957.0037,N,11618.7637,E,1,10,72.6,39984.8,M,4232.8,M,,*7
2013/10/21 20:52:26
$GPGGA,205226,3957.0037,N,11618.7637,E,1,10,72.6,39984.8,M,4232.8,M,,*7F
2013/10/21 20:52:26
$GPGGA,205226,3957.0037,N,11618.7637,E,1,10,72.6,39984.8,M,4232.8,M,,*7F
2013/10/21 20:52:26
$GPGGA,205226,3957.0037,N,11618.7637,E,1,10,72.6,39984.8,M,4232.8,M,,*7F

2013/10/21 20:52:27
$GPGGA,205227,3957.0039,N,11618.0918,E,5,05,82.0,74608.1,M,5551.0,M,,*
2013/10/21 20:52:27
$GPGGA,205227,3957.0039,N,11618.0918,E,5,05,82.0,74608.1,M,5551.0,M,,*7
2013/10/21 20:52:27
$GPGGA,205227,3957.0039,N,11618.0918,E,5,05,82.0,74608.1,M,5551.0,M,,*7C
2013/10/21 20:52:27
$GPGGA,205227,3957.0039,N,11618.0918,E,5,05,82.0,74608.1,M,5551.0,M,,*7C
2013/10/21 20:52:27
$GPGGA,205227,3957.0039,N,11618.0918,E,5,05,82.0,74608.1,M,5551.0,M,,*7C

2013/10/21 20:52:28
$GPGGA,205228,3957.0039,N,11618.4199,E,3,11,91.4,-765.0,M,6868.9,M,,*
2013/10/21 20:52:28
$GPGGA,205228,3957.0039,N,11618.4199,E,3,11,91.4,-765.0,M,6868.9,M,,*5
2013/10/21 20:52:28
$GPGGA,205228,3957.0039,N,11618.4199,E,3,11,91.4,-765.0,M,6868.9,M,,*5B
2013/10/21 20:52:28
$GPGGA,205228,3957.0039,N,11618.4199,E,3,11,91.4,-765.0,M,6868.9,M,,*5B
2013/10/21 20:52:28
$GPGGA,205228,3957.0039,N,11618.4199,E,3,11,91.4,-765.0,M,6868.9,M,,*5B

2013/10/21 20:52:29
$GPGGA,205229,3957.0042,N,11618.7480,E,2,06,1.5,33858.4,M,8187.2,M,,*
2013/10/21 20:52:29
$GPGGA,205229,3957.0042,N,11618.7480,E,2,06,1.5,33858.4,M,8187.2,M,,*4
2013/10/21 20:52:29
$GPGGA,205229,3957.0042,N,11618.7480,E,2,06,1.5,33858.4,M,8187.2,M,,*42
2013/10/21 20:52:29
$GPGGA,205229,3957.0042,N,11618.7480,E,2,06,1.5,33858.4,M,8187.2,M,,*42
2013/10/21 20:52:29
$GPGGA,205229,3957.0042,N,11618.7480,E,2,06,1.5,33858.4,M,8187.2,M,,*42

2013/10/21 20:52:30
$GPGGA,205230,3957.0042,N,11618.0762,E,0,01,10.9,68485.1,M,9505.4,M,,*
2013/10/21 20:52:30
$GPGGA,205230,3957.0042,N,11618.0762,E,0,01,10.9,68485.1,M,9505.4,M,,*7
2013/10/21 20:52:30
$GPGGA,205230,3957.0042,N,11618.0762,E,0,01,10.9,68485.1,M,9505.4,M,,*75
2013/10/21 20:52:30
$GPGGA,205230,3957.0042,N,11618.0762,E,0,01,10.9,68485.1,M,9505.4,M,,*75
2013/10/21 20:52:30
$GPGGA,205230,3957.0042,N,11618.0762,E,0,01,10.9,68485.1,M,9505.4,M,,*75

2013/10/21 20:52:31
$GPGGA,205231,3957.0042,N,11618.4043,E,5,07,20.4,-6888.0,M,-176.5,M,,*
2013/10/21 20:52:31
$GPGGA,205231,3957.0042,N,11618.4043,E,5,07,20.4,-6888.0,M,-176.5,M,,*7
2013/10/21 20:52:31
$GPGGA,205231,3957.0042,N,11618.4043,E,5,07,20.4,-6888.0,M,-176.5,M,,*79
2013/10/21 20:52:31
$GPGGA,205231,3957.0042,N,11618.4043,E,5,07,20.4,-6888.0,M,-176.5,M,,*79
2013/10/21 20:52:31
$GPGGA,205231,3957.0042,N,11618.4043,E,5,07,20.4,-6888.0,M,-176.5,M,,*79

2013/10/21 20:52:32
$GPGGA,205232,3957.0044,N,11618.7324,E,3,02,29.8,27735.3,M,1141.8,M,,*
2013/10/21 20:52:32
$GPGGA,205232,3957.0044,N,11618.7324,E,3,02,29.8,27735.3,M,1141.8,M,,*7
2013/10/21 20:52:32
$GPGGA,205232,3957.0044,N,11618.7324,E,3,02,29.8,27735.3,M,1141.8,M,,*7A
2013/10/21 20:52:32
$GPGGA,205232,3957.0044,N,11618.7324,E,3,02,29.8,27735.3,M,1141.8,M,,*7A
2013/10/21 20:52:32
$GPGGA,205232,3957.0044,N,11618.7324,E,3,02,29.8,27735.3,M,1141.8,M,,*7A

2013/10/21 20:52:33
$GPGGA,205233,3957.0044,N,11618.0605,E,1,08,39.2,62362.0,M,2460.0,M,,*
2013/10/21 20:52:33
$GPGGA,205233,3957.0044,N,11618.0605,E,1,08,39.2,62362.0,M,2460.0,M,,*7
2013/10/21 20:52:33
$GPGGA,205233,3957.0044,N,11618.0605,E,1,08,39.2,62362.0,M,2460.0,M,,*70
2013/10/21 20:52:33
$GPGGA,205233,3957.0044,N,11618.0605,E,1,08,39.2,62362.0,M,2460.0,M,,*70
2013/10/21 20:52:33
$GPGGA,205233,3957.0044,N,11618.0605,E,1,08,39.2,62362.0,M,2460.0,M,,*70

2013/10/21 20:52:34
$GPGGA,205234,3957.0046,N,11618.3877,E,0,03,48.7,96985.4,M,3778.3,M,,*
2013/10/21 20:52:34
$GPGGA,205234,3957.0046,N,11618.3877,E,0,03,48.7,96985.4,M,3778.3,M,,*7
2013/10/21 20:52:34
$GPGGA,205234,3957.0046,N,11618.3877,E,0,03,48.7,96985.4,M,3778.3,M,,*70
2013/10/21 20:52:34
$GPGGA,205234,3957.0046,N,11618.3877,E,0,03,48.7,96985.4,M,3778.3,M,,*70
2013/10/21 20:52:34
$GPGGA,205234,3957.0046,N,11618.3877,E,0,03,48.7,96985.4,M,3778.3,M,,*70

2013/10/21 20:52:35
$GPGGA,205235,3957.0046,N,11618.7158,E,4,09,58.1,21612.3,M,5096.2,M,,*
2013/10/21 20:52:35
$GPGGA,205235,3957.0046,N,11618.7158,E,4,09,58.1,21612.3,M,5096.2,M,,*7
2013/10/21 20:52:35
$GPGGA,205235,3957.0046,N,11618.7158,E,4,09,58.1,21612.3,M,5096.2,M,,*72
2013/10/21 20:52:35
$GPGGA,205235,3957.0046,N,11618.7158,E,4,09,58.1,21612.3,M,5096.2,M,,*72
2013/10/21 20:52:35
$GPGGA,205235,3957.0046,N,11618.7158,E,4,09,58.1,21612.3,M,5096.2,M,,*72

2013/10/21 20:52:36
$GPGGA,205236,3957.0049,N,11618.0439,E,3,04,67.6,56235.6,M,6414.4,M,,*
2013/10/21 20:52:36
$GPGGA,205236,3957.0049,N,11618.0439,E,3,04,67.6,56235.6,M,6414.4,M,,*7
2013/10/21 20:52:36
$GPGGA,205236,3957.0049,N,11618.0439,E,3,04,67.6,56235.6,M,6414.4,M,,*75
2013/10/21 20:52:36
$GPGGA,205236,3957.0049,N,11618.0439,E,3,04,67.6,56235.6,M,6414.4,M,,*75
2013/10/21 20:52:36
$GPGGA,205236,3957.0049,N,11618.0439,E,3,04,67.6,56235.6,M,6414.4,M,,*75

2013/10/21 20:52:37
$GPGGA,205237,3957.0049,N,11618.3721,E,1,10,77.0,90862.3,M,7732.7,M,,*
2013/10/21 20:52:37
$GPGGA,205237,3957.0049,N,11618.3721,E,1,10,77.0,90862.3,M,7732.7,M,,*7
2013/10/21 20:52:37
$GPGGA,205237,3957.0049,N,11618.3721,E,1,10,77.0,90862.3,M,7732.7,M,,*7F
2013/10/21 20:52:37
$GPGGA,205237,3957.0049,N,11618.3721,E,1,10,77.0,90862.3,M,7732.7,M,,*7F
2013/10/21 20:52:37
$GPGGA,205237,3957.0049,N,11618.3721,E,1,10,77.0,90862.3,M,7732.7,M,,*7F

2013/10/21 20:52:38
$GPGGA,205238,3957.0049,N,11618.7002,E,5,05,86.4,15489.3,M,9050.9,M,,*
2013/10/21 20:52:38
$GPGGA,205238,3957.0049,N,11618.7002,E,5,05,86.4,15489.3,M,9050.9,M,,*7
2013/10/21 20:52:38
$GPGGA,205238,3957.0049,N,11618.7002,E,5,05,86.4,15489.3,M,9050.9,M,,*7F
2013/10/21 20:52:38
$GPGGA,205238,3957.0049,N,11618.7002,E,5,05,86.4,15489.3,M,9050.9,M,,*7F
2013/10/21 20:52:38
$GPGGA,205238,3957.0049,N,11618.7002,E,5,05,86.4,15489.3,M,9050.9,M,,*7F

2013/10/21 20:52:39
$GPGGA,205239,3957.0051,N,11618.0283,E,4,11,95.9,50112.6,M,-631.0,M,,*
2013/10/21 20:52:39
$GPGGA,205239,3957.0051,N,11618.0283,E,4,11,95.9,50112.6,M,-631.0,M,,*6
2013/10/21 20:52:39
$GPGGA,205239,3957.0051,N,11618.0283,E,4,11,95.9,50112.6,M,-631.0,M,,*6F
2013/10/21 20:52:39
$GPGGA,205239,3957.0051,N,11618.0283,E,4,11,95.9,50112.6,M,-631.0,M,,*6F
2013/10/21 20:52:39
$GPGGA,205239,3957.0051,N,11618.0283,E,4,11,95.9,50112.6,M,-631.0,M,,*6F

2013/10/21 20:52:40
$GPGGA,205240,3957.0051,N,11618.3564,E,2,06,5.9,84739.3,M,687.3,M,,*
2013/10/21 20:52:40
$GPGGA,205240,3957.0051,N,11618.3564,E,2,06,5.9,84739.3,M,687.3,M,,*7
2013/10/21 20:52:40
$GPGGA,205240,3957.0051,N,11618.3564,E,2,06,5.9,84739.3,M,687.3,M,,*75
2013/10/21 20:52:40
$GPGGA,205240,3957.0051,N,11618.3564,E,2,06,5.9,84739.3,M,687.3,M,,*75
2013/10/21 20:52:40
$GPGGA,205240,3957.0051,N,11618.3564,E,2,06,5.9,84739.3,M,687.3,M,,*75

2013/10/21 20:52:41
$GPGGA,205241,3957.0054,N,11618.6846,E,1,01,15.4,9362.9,M,2005.5,M,,*
2013/10/21 20:52:41
$GPGGA,205241,3957.0054,N,11618.6846,E,1,01,15.4,9362.9,M,2005.5,M,,*4
2013/10/21 20:52:41
$GPGGA,205241,3957.0054,N,11618.6846,E,1,01,15.4,9362.9,M,2005.5,M,,*4C
2013/10/21 20:52:41
$GPGGA,205241,3957.0054,N,11618.6846,E,1,01,15.4,9362.9,M,2005.5,M,,*4C
2013/10/21 20:52:41
$GPGGA,205241,3957.0054,N,11618.6846,E,1,01,15.4,9362.9,M,2005.5,M,,*4C

2013/10/21 20:52:42
$GPGGA,205242,3957.0054,N,11618.0117,E,5,06,24.8,43989.6,M,3323.4,M,,*
2013/10/21 20:52:42
$GPGGA,205242,3957.0054,N,11618.0117,E,5,06,24.8,43989.6,M,3323.4,M,,*7
2013/10/21 20:52:42
$GPGGA,205242,3957.0054,N,11618.0117,E,5,06,24.8,43989.6,M,3323.4,M,,*70
2013/10/21 20:52:42
$GPGGA,205242,3957.0054,N,11618.0117,E,5,06,24.8,43989.6,M,3323.4,M,,*70
2013/10/21 20:52:42
$GPGGA,205242,3957.0054,N,11618.0117,E,5,06,24.8,43989.6,M,3323.4,M,,*70

2013/10/21 20:52:43
$GPGGA,205243,3957.0054,N,11618.3398,E,3,01,34.3,78612.9,M,4641.7,M,,*
2013/10/21 20:52:43
$GPGGA,205243,3957.0054,N,11618.3398,E,3,01,34.3,78612.9,M,4641.7,M,,*7
2013/10/21 20:52:43
$GPGGA,205243,3957.0054,N,11618.3398,E,3,01,34.3,78612.9,M,4641.7,M,,*73
2013/10/21 20:52:43
$GPGGA,205243,3957.0054,N,11618.3398,E,3,01,34.3,78612.9,M,4641.7,M,,*73
2013/10/21 20:52:43
$GPGGA,205243,3957.0054,N,11618.3398,E,3,01,34.3,78612.9,M,4641.7,M,,*73

2013/10/21 20:52:44
$GPGGA,205244,3957.0056,N,11618.6680,E,2,07,43.7,3239.8,M,5959.9,M,,*
2013/10/21 20:52:44
$GPGGA,205244,3957.0056,N,11618.6680,E,2,07,43.7,3239.8,M,5959.9,M,,*4
2013/10/21 20:52:44
$GPGGA,205244,3957.0056,N,11618.6680,E,2,07,43.7,3239.8,M,5959.9,M,,*45
2013/10/21 20:52:44
$GPGGA,205244,3957.0056,N,11618.6680,E,2,07,43.7,3239.8,M,5959.9,M,,*45
2013/10/21 20:52:44
$GPGGA,205244,3957.0056,N,11618.6680,E,2,07,43.7,3239.8,M,5959.9,M,,*45

2013/10/21 20:52:45
$GPGGA,205245,3957.0056,N,11618.9961,E,0,02,53.1,37866.5,M,7278.1,M,,*
2013/10/21 20:52:45
$GPGGA,205245,3957.0056,N,11618.9961,E,0,02,53.1,37866.5,M,7278.1,M,,*7
2013/10/21 20:52:45
$GPGGA,205245,3957.0056,N,11618.9961,E,0,02,53.1,37866.5,M,7278.1,M,,*73
2013/10/21 20:52:45
$GPGGA,205245,3957.0056,N,11618.9961,E,0,02,53.1,37866.5,M,7278.1,M,,*73
2013/10/21 20:52:45
$GPGGA,205245,3957.0056,N,11618.9961,E,0,02,53.1,37866.5,M,7278.1,M,,*73

2013/10/21 20:52:46
$GPGGA,205246,3957.0059,N,11618.3242,E,5,08,62.6,72489.9,M,8596.1,M,,*
2013/10/21 20:52:46
$GPGGA,205246,3957.0059,N,11618.3242,E,5,08,62.6,72489.9,M,8596.1,M,,*7
2013/10/21 20:52:46
$GPGGA,205246,3957.0059,N,11618.3242,E,5,08,62.6,72489.9,M,8596.1,M,,*7D
2013/10/21 20:52:46
$GPGGA,205246,3957.0059,N,11618.3242,E,5,08,62.6,72489.9,M,8596.1,M,,*7D
2013/10/21 20:52:46
$GPGGA,205246,3957.0059,N,11618.3242,E,5,08,62.6,72489.9,M,8596.1,M,,*7D

2013/10/21 20:52:47
$GPGGA,205247,3957.0059,N,11618.6523,E,3,03,72.0,-2883.2,M,9914.3,M,,*
2013/10/21 20:52:47
$GPGGA,205247,3957.0059,N,11618.6523,E,3,03,72.0,-2883.2,M,9914.3,M,,*6
2013/10/21 20:52:47
$GPGGA,205247,3957.0059,N,11618.6523,E,3,03,72.0,-2883.2,M,9914.3,M,,*61
2013/10/21 20:52:47
$GPGGA,205247,3957.0059,N,11618.6523,E,3,03,72.0,-2883.2,M,9914.3,M,,*61
2013/10/21 20:52:47
$GPGGA,205247,3957.0059,N,11618.6523,E,3,03,72.0,-2883.2,M,9914.3,M,,*61

2013/10/21 20:52:48
$GPGGA,205248,3957.0059,N,11618.9805,E,1,09,81.5,31740.1,M,232.7,M,,*
2013/10/21 20:52:48
$GPGGA,205248,3957.0059,N,11618.9805,E,1,09,81.5,31740.1,M,232.7,M,,*4
2013/10/21 20:52:48
$GPGGA,205248,3957.0059,N,11618.9805,E,1,09,81.5,31740.1,M,232.7,M,,*45
2013/10/21 20:52:48
$GPGGA,205248,3957.0059,N,11618.9805,E,1,09,81.5,31740.1,M,232.7,M,,*45
2013/10/21 20:52:48
$GPGGA,205248,3957.0059,N,11618.9805,E,1,09,81.5,31740.1,M,232.7,M,,*45

2013/10/21 20:52:49
$GPGGA,205249,3957.0061,N,11618.3086,E,0,04,90.9,66366.8,M,1551.0,M,,*
2013/10/21 20:52:49
$GPGGA,205249,3957.0061,N,11618.3086,E,0,04,90.9,66366.8,M,1551.0,M,,*7
2013/10/21 20:52:49
$GPGGA,205249,3957.0061,N,11618.3086,E,0,04,90.9,66366.8,M,1551.0,M,,*79
2013/10/21 20:52:49
$GPGGA,205249,3957.0061,N,11618.3086,E,0,04,90.9,66366.8,M,1551.0,M,,*79
2013/10/21 20:52:49
$GPGGA,205249,3957.0061,N,11618.3086,E,0,04,90.9,66366.8,M,1551.0,M,,*79

2013/10/21 20:52:50
$GPGGA,205250,3957.0061,N,11618.6367,E,4,10,0.9,-9006.2,M,2868.9,M,,*
2013/10/21 20:52:50
$GPGGA,205250,3957.0061,N,11618.6367,E,4,10,0.9,-9006.2,M,2868.9,M,,*5
2013/10/21 20:52:50
$GPGGA,205250,3957.0061,N,11618.6367,E,4,10,0.9,-9006.2,M,2868.9,M,,*56
2013/10/21 20:52:50
$GPGGA,205250,3957.0061,N,11618.6367,E,4,10,0.9,-9006.2,M,2868.9,M,,*56
2013/10/21 20:52:50
$GPGGA,205250,3957.0061,N,11618.6367,E,4,10,0.9,-9006.2,M,2868.9,M,,*56

2013/10/21 20:52:51
$GPGGA,205251,3957.0063,N,11618.9648,E,3,05,10.4,25617.1,M,4187.1,M,,*
2013/10/21 20:52:51
$GPGGA,205251,3957.0063,N,11618.9648,E,3,05,10.4,25617.1,M,4187.1,M,,*7
2013/10/21 20:52:51
$GPGGA,205251,3957.0063,N,11618.9648,E,3,05,10.4,25617.1,M,4187.1,M,,*7D
2013/10/21 20:52:51
$GPGGA,205251,3957.0063,N,11618.9648,E,3,05,10.4,25617.1,M,4187.1,M,,*7D
2013/10/21 20:52:51
$GPGGA,205251,3957.0063,N,11618.9648,E,3,05,10.4,25617.1,M,4187.1,M,,*7D

2013/10/21 20:52:52
$GPGGA,205252,3957.0063,N,11618.2920,E,1,11,19.8,60243.8,M,5505.4,M,,*
2013/10/21 20:52:52
$GPGGA,205252,3957.0063,N,11618.2920,E,1,11,19.8,60243.8,M,5505.4,M,,*7
2013/10/21 20:52:52
$GPGGA,205252,3957.0063,N,11618.2920,E,1,11,19.8,60243.8,M,5505.4,M,,*71
2013/10/21 20:52:52
$GPGGA,205252,3957.0063,N,11618.2920,E,1,11,19.8,60243.8,M,5505.4,M,,*71
2013/10/21 20:52:52
$GPGGA,205252,3957.0063,N,11618.2920,E,1,11,19.8,60243.8,M,5505.4,M,,*71

2013/10/21 20:52:53
$GPGGA,205253,3957.0063,N,11618.6201,E,5,06,29.3,94867.2,M,6823.6,M,,*
2013/10/21 20:52:53
$GPGGA,205253,3957.0063,N,11618.6201,E,5,06,29.3,94867.2,M,6823.6,M,,*7
2013/10/21 20:52:53
$GPGGA,205253,3957.0063,N,11618.6201,E,5,06,29.3,94867.2,M,6823.6,M,,*73
2013/10/21 20:52:53
$GPGGA,205253,3957.0063,N,11618.6201,E,5,06,29.3,94867.2,M,6823.6,M,,*73
2013/10/21 20:52:53
$GPGGA,205253,3957.0063,N,11618.6201,E,5,06,29.3,94867.2,M,6823.6,M,,*73

2013/10/21 20:52:54
$GPGGA,205254,3957.0066,N,11618.9482,E,4,01,38.7,19494.1,M,8141.5,M,,*
2013/10/21 20:52:54
$GPGGA,205254,3957.0066,N,11618.9482,E,4,01,38.7,19494.1,M,8141.5,M,,*7
2013/10/21 20:52:54
$GPGGA,205254,3957.0066,N,11618.9482,E,4,01,38.7,19494.1,M,8141.5,M,,*77
2013/10/21 20:52:54
$GPGGA,205254,3957.0066,N,11618.9482,E,4,01,38.7,19494.1,M,8141.5,M,,*77
2013/10/21 20:52:54
$GPGGA,205254,3957.0066,N,11618.9482,E,4,01,38.7,19494.1,M,8141.5,M,,*77

2013/10/21 20:52:55
$GPGGA,205255,3957.0066,N,11618.2764,E,2,07,48.2,54117.4,M,9459.8,M,,*
2013/10/21 20:52:55
$GPGGA,205255,3957.0066,N,11618.2764,E,2,07,48.2,54117.4,M,9459.8,M,,*7
2013/10/21 20:52:55
$GPGGA,205255,3957.0066,N,11618.2764,E,2,07,48.2,54117.4,M,9459.8,M,,*76
2013/10/21 20:52:55
$GPGGA,205255,3957.0066,N,11618.2764,E,2,07,48.2,54117.4,M,9459.8,M,,*76
2013/10/21 20:52:55
$GPGGA,205255,3957.0066,N,11618.2764,E,2,07,48.2,54117.4,M,9459.8,M,,*76

2013/10/21 20:52:56
$GPGGA,205256,3957.0068,N,11618.6045,E,1,02,57.6,88744.1,M,-221.8,M,,*
2013/10/21 20:52:56
$GPGGA,205256,3957.0068,N,11618.6045,E,1,02,57.6,88744.1,M,-221.8,M,,*6
2013/10/21 20:52:56
$GPGGA,205256,3957.0068,N,11618.6045,E,1,02,57.6,88744.1,M,-221.8,M,,*6E
2013/10/21 20:52:56
$GPGGA,205256,3957.0068,N,11618.6045,E,1,02,57.6,88744.1,M,-221.8,M,,*6E
2013/10/21 20:52:56
$GPGGA,205256,3957.0068,N,11618.6045,E,1,02,57.6,88744.1,M,-221.8,M,,*6E

2013/10/21 20:52:57
$GPGGA,205257,3957.0068,N,11618.9326,E,5,08,67.0,13371.0,M,1096.1,M,,*
2013/10/21 20:52:57
$GPGGA,205257,3957.0068,N,11618.9326,E,5,08,67.0,13371.0,M,1096.1,M,,*7
2013/10/21 20:52:57
$GPGGA,205257,3957.0068,N,11618.9326,E,5,08,67.0,13371.0,M,1096.1,M,,*77
2013/10/21 20:52:57
$GPGGA,205257,3957.0068,N,11618.9326,E,5,08,67.0,13371.0,M,1096.1,M,,*77
2013/10/21 20:52:57
$GPGGA,205257,3957.0068,N,11618.9326,E,5,08,67.0,13371.0,M,1096.1,M,,*77

2013/10/21 20:52:58
$GPGGA,205258,3957.0068,N,11618.2607,E,4,03,76.5,47994.4,M,2414.4,M,,*
2013/10/21 20:52:58
$GPGGA,205258,3957.0068,N,11618.2607,E,4,03,76.5,47994.4,M,2414.4,M,,*7
2013/10/21 20:52:58
$GPGGA,205258,3957.0068,N,11618.2607,E,4,03,76.5,47994.4,M,2414.4,M,,*76
2013/10/21 20:52:58
$GPGGA,205258,3957.0068,N,11618.2607,E,4,03,76.5,47994.4,M,2414.4,M,,*76
2013/10/21 20:52:58
$GPGGA,205258,3957.0068,N,11618.2607,E,4,03,76.5,47994.4,M,2414.4,M,,*76

2013/10/21 20:52:59
$GPGGA,205259,3957.0071,N,11618.5889,E,2,09,85.9,82621.1,M,3732.6,M,,*
2013/10/21 20:52:59
$GPGGA,205259,3957.0071,N,11618.5889,E,2,09,85.9,82621.1,M,3732.6,M,,*7
2013/10/21 20:52:59
$GPGGA,205259,3957.0071,N,11618.5889,E,2,09,85.9,82621.1,M,3732.6,M,,*75
2013/10/21 20:52:59
$GPGGA,205259,3957.0071,N,11618.5889,E,2,09,85.9,82621.1,M,3732.6,M,,*75
2013/10/21 20:52:59
$GPGGA,205259,3957.0071,N,11618.5889,E,2,09,85.9,82621.1,M,3732.6,M,,*75

2013/10/21 20:53:00
$GPGGA,205300,3957.0012,N,11618.2354,E,0,08,25.9,19725.7,M,2960.2,M,,*
2013/10/21 20:53:00
$GPGGA,205300,3957.0012,N,11618.2354,E,0,08,25.9,19725.7,M,2960.2,M,,*7
2013/10/21 20:53:00
$GPGGA,205300,3957.0012,N,11618.2354,E,0,08,25.9,19725.7,M,2960.2,M,,*75
2013/10/21 20:53:00
$GPGGA,205300,3957.0012,N,11618.2354,E,0,08,25.9,19725.7,M,2960.2,M,,*75
2013/10/21 20:53:00
$GPGGA,205300,3957.0012,N,11618.2354,E,0,08,25.9,19725.7,M,2960.2,M,,*75

2013/10/21 20:53:01
$GPGGA,205301,3957.0012,N,11618.5635,E,4,03,35.3,54349.0,M,4278.4,M,,*
2013/10/21 20:53:01
$GPGGA,205301,3957.0012,N,11618.5635,E,4,03,35.3,54349.0,M,4278.4,M,,*7
2013/10/21 20:53:01
$GPGGA,205301,3957.0012,N,11618.5635,E,4,03,35.3,54349.0,M,4278.4,M,,*77
2013/10/21 20:53:01
$GPGGA,205301,3957.0012,N,11618.5635,E,4,03,35.3,54349.0,M,4278.4,M,,*77
2013/10/21 20:53:01
$GPGGA,205301,3957.0012,N,11618.5635,E,4,03,35.3,54349.0,M,4278.4,M,,*77

2013/10/21 20:53:02
$GPGGA,205302,3957.0015,N,11618.8916,E,3,09,44.8,88975.8,M,5596.4,M,,*
2013/10/21 20:53:02
$GPGGA,205302,3957.0015,N,11618.8916,E,3,09,44.8,88975.8,M,5596.4,M,,*7
2013/10/21 20:53:02
$GPGGA,205302,3957.0015,N,11618.8916,E,3,09,44.8,88975.8,M,5596.4,M,,*7A
2013/10/21 20:53:02
$GPGGA,205302,3957.0015,N,11618.8916,E,3,09,44.8,88975.8,M,5596.4,M,,*7A
2013/10/21 20:53:02
$GPGGA,205302,3957.0015,N,11618.8916,E,3,09,44.8,88975.8,M,5596.4,M,,*7A

2013/10/21 20:53:03
$GPGGA,205303,3957.0015,N,11618.2197,E,1,04,54.2,13602.7,M,6914.6,M,,*
2013/10/21 20:53:03
$GPGGA,205303,3957.0015,N,11618.2197,E,1,04,54.2,13602.7,M,6914.6,M,,*7
2013/10/21 20:53:03
$GPGGA,205303,3957.0015,N,11618.2197,E,1,04,54.2,13602.7,M,6914.6,M,,*71
2013/10/21 20:53:03
$GPGGA,205303,3957.0015,N,11618.2197,E,1,04,54.2,13602.7,M,6914.6,M,,*71
2013/10/21 20:53:03
$GPGGA,205303,3957.0015,N,11618.2197,E,1,04,54.2,13602.7,M,6914.6,M,,*71

2013/10/21 20:53:04
$GPGGA,205304,3957.0015,N,11618.5479,E,0,10,63.6,48226.0,M,8232.8,M,,*
2013/10/21 20:53:04
$GPGGA,205304,3957.0015,N,11618.5479,E,0,10,63.6,48226.0,M,8232.8,M,,*7
2013/10/21 20:53:04
$GPGGA,205304,3957.0015,N,11618.5479,E,0,10,63.6,48226.0,M,8232.8,M,,*74
2013/10/21 20:53:04
$GPGGA,205304,3957.0015,N,11618.5479,E,0,10,63.6,48226.0,M,8232.8,M,,*74
2013/10/21 20:53:04
$GPGGA,205304,3957.0015,N,11618.5479,E,0,10,63.6,48226.0,M,8232.8,M,,*74

2013/10/21 20:53:05
$GPGGA,205305,3957.0017,N,11618.8760,E,4,05,73.1,82852.7,M,9550.8,M,,*
2013/10/21 20:53:05
$GPGGA,205305,3957.0017,N,11618.8760,E,4,05,73.1,82852.7,M,9550.8,M,,*7
2013/10/21 20:53:05
$GPGGA,205305,3957.0017,N,11618.8760,E,4,05,73.1,82852.7,M,9550.8,M,,*7D
2013/10/21 20:53:05
$GPGGA,205305,3957.0017,N,11618.8760,E,4,05,73.1,82852.7,M,9550.8,M,,*7D
2013/10/21 20:53:05
$GPGGA,205305,3957.0017,N,11618.8760,E,4,05,73.1,82852.7,M,9550.8,M,,*7D

2013/10/21 20:53:06
$GPGGA,205306,3957.0017,N,11618.2041,E,2,11,82.5,7476.3,M,-130.8,M,,*
2013/10/21 20:53:06
$GPGGA,205306,3957.0017,N,11618.2041,E,2,11,82.5,7476.3,M,-130.8,M,,*5
2013/10/21 20:53:06
$GPGGA,205306,3957.0017,N,11618.2041,E,2,11,82.5,7476.3,M,-130.8,M,,*5C
2013/10/21 20:53:06
$GPGGA,205306,3957.0017,N,11618.2041,E,2,11,82.5,7476.3,M,-130.8,M,,*5C
2013/10/21 20:53:06
$GPGGA,205306,3957.0017,N,11618.2041,E,2,11,82.5,7476.3,M,-130.8,M,,*5C

2013/10/21 20:53:07
$GPGGA,205307,3957.0020,N,11618.5313,E,1,06,92.0,42103.0,M,1187.4,M,,*
2013/10/21 20:53:07
$GPGGA,205307,3957.0020,N,11618.5313,E,1,06,92.0,42103.0,M,1187.4,M,,*7
2013/10/21 20:53:07
$GPGGA,205307,3957.0020,N,11618.5313,E,1,06,92.0,42103.0,M,1187.4,M,,*72
2013/10/21 20:53:07
$GPGGA,205307,3957.0020,N,11618.5313,E,1,06,92.0,42103.0,M,1187.4,M,,*72
2013/10/21 20:53:07
$GPGGA,205307,3957.0020,N,11618.5313,E,1,06,92.0,42103.0,M,1187.4,M,,*72

2013/10/21 20:53:08
$GPGGA,205308,3957.0020,N,11618.8594,E,5,01,2.0,76726.3,M,2505.7,M,,*
2013/10/21 20:53:08
$GPGGA,205308,3957.0020,N,11618.8594,E,5,01,2.0,76726.3,M,2505.7,M,,*4
2013/10/21 20:53:08
$GPGGA,205308,3957.0020,N,11618.8594,E,5,01,2.0,76726.3,M,2505.7,M,,*48
2013/10/21 20:53:08
$GPGGA,205308,3957.0020,N,11618.8594,E,5,01,2.0,76726.3,M,2505.7,M,,*48
2013/10/21 20:53:08
$GPGGA,205308,3957.0020,N,11618.8594,E,5,01,2.0,76726.3,M,2505.7,M,,*48

2013/10/21 20:53:09
$GPGGA,205309,3957.0020,N,11618.1875,E,4,07,11.4,1353.2,M,3823.6,M,,*
2013/10/21 20:53:09
$GPGGA,205309,3957.0020,N,11618.1875,E,4,07,11.4,1353.2,M,3823.6,M,,*4
2013/10/21 20:53:09
$GPGGA,205309,3957.0020,N,11618.1875,E,4,07,11.4,1353.2,M,3823.6,M,,*4D
2013/10/21 20:53:09
$GPGGA,205309,3957.0020,N,11618.1875,E,4,07,11.4,1353.2,M,3823.6,M,,*4D
2013/10/21 20:53:09
$GPGGA,205309,3957.0020,N,11618.1875,E,4,07,11.4,1353.2,M,3823.6,M,,*4D

2013/10/21 20:53:10
$GPGGA,205310,3957.0022,N,11618.5156,E,2,02,20.9,35979.9,M,5141.8,M,,*
2013/10/21 20:53:10
$GPGGA,205310,3957.0022,N,11618.5156,E,2,02,20.9,35979.9,M,5141.8,M,,*7
2013/10/21 20:53:10
$GPGGA,205310,3957.0022,N,11618.5156,E,2,02,20.9,35979.9,M,5141.8,M,,*7C
2013/10/21 20:53:10
$GPGGA,205310,3957.0022,N,11618.5156,E,2,02,20.9,35979.9,M,5141.8,M,,*7C
2013/10/21 20:53:10
$GPGGA,205310,3957.0022,N,11618.5156,E,2,02,20.9,35979.9,M,5141.8,M,,*7C

2013/10/21 20:53:11
$GPGGA,205311,3957.0022,N,11618.8438,E,0,08,30.3,70603.3,M,6460.1,M,,*
2013/10/21 20:53:11
$GPGGA,205311,3957.0022,N,11618.8438,E,0,08,30.3,70603.3,M,6460.1,M,,*7
2013/10/21 20:53:11
$GPGGA,205311,3957.0022,N,11618.8438,E,0,08,30.3,70603.3,M,6460.1,M,,*7B
2013/10/21 20:53:11
$GPGGA,205311,3957.0022,N,11618.8438,E,0,08,30.3,70603.3,M,6460.1,M,,*7B
2013/10/21 20:53:11
$GPGGA,205311,3957.0022,N,11618.8438,E,0,08,30.3,70603.3,M,6460.1,M,,*7B

2013/10/21 20:53:12
$GPGGA,205312,3957.0024,N,11618.1719,E,5,03,39.8,-4769.8,M,7778.3,M,,*
2013/10/21 20:53:12
$GPGGA,205312,3957.0024,N,11618.1719,E,5,03,39.8,-4769.8,M,7778.3,M,,*6
2013/10/21 20:53:12
$GPGGA,205312,3957.0024,N,11618.1719,E,5,03,39.8,-4769.8,M,7778.3,M,,*6A
2013/10/21 20:53:12
$GPGGA,205312,3957.0024,N,11618.1719,E,5,03,39.8,-4769.8,M,7778.3,M,,*6A
2013/10/21 20:53:12
$GPGGA,205312,3957.0024,N,11618.1719,E,5,03,39.8,-4769.8,M,7778.3,M,,*6A

2013/10/21 20:53:13
$GPGGA,205313,3957.0024,N,11618.5000,E,3,09,49.2,29853.5,M,9096.2,M,,*
2013/10/21 20:53:13
$GPGGA,205313,3957.0024,N,11618.5000,E,3,09,49.2,29853.5,M,9096.2,M,,*7
2013/10/21 20:53:13
$GPGGA,205313,3957.0024,N,11618.5000,E,3,09,49.2,29853.5,M,9096.2,M,,*70
2013/10/21 20:53:13
$GPGGA,205313,3957.0024,N,11618.5000,E,3,09,49.2,29853.5,M,9096.2,M,,*70
2013/10/21 20:53:13
$GPGGA,205313,3957.0024,N,11618.5000,E,3,09,49.2,29853.5,M,9096.2,M,,*70

2013/10/21 20:53:14
$GPGGA,205314,3957.0024,N,11618.8281,E,2,04,58.7,64480.3,M,-585.3,M,,*
2013/10/21 20:53:14
$GPGGA,205314,3957.0024,N,11618.8281,E,2,04,58.7,64480.3,M,-585.3,M,,*6
2013/10/21 20:53:14
$GPGGA,205314,3957.0024,N,11618.8281,E,2,04,58.7,64480.3,M,-585.3,M,,*67
2013/10/21 20:53:14
$GPGGA,205314,3957.0024,N,11618.8281,E,2,04,58.7,64480.3,M,-585.3,M,,*67
2013/10/21 20:53:14
$GPGGA,205314,3957.0024,N,11618.8281,E,2,04,58.7,64480.3,M,-585.3,M,,*67

2013/10/21 20:53:15
$GPGGA,205315,3957.0027,N,11618.1563,E,0,10,68.1,99103.6,M,732.9,M,,*
2013/10/21 20:53:15
$GPGGA,205315,3957.0027,N,11618.1563,E,0,10,68.1,99103.6,M,732.9,M,,*4
2013/10/21 20:53:15
$GPGGA,205315,3957.0027,N,11618.1563,E,0,10,68.1,99103.6,M,732.9,M,,*45
2013/10/21 20:53:15
$GPGGA,205315,3957.0027,N,11618.1563,E,0,10,68.1,99103.6,M,732.9,M,,*45
2013/10/21 20:53:15
$GPGGA,205315,3957.0027,N,11618.1563,E,0,10,68.1,99103.6,M,732.9,M,,*45

2013/10/21 20:53:16
$GPGGA,205316,3957.0027,N,11618.4834,E,4,05,77.5,23730.5,M,2051.2,M,,*
2013/10/21 20:53:16
$GPGGA,205316,3957.0027,N,11618.4834,E,4,05,77.5,23730.5,M,2051.2,M,,*7
2013/10/21 20:53:16
$GPGGA,205316,3957.0027,N,11618.4834,E,4,05,77.5,23730.5,M,2051.2,M,,*79
2013/10/21 20:53:16
$GPGGA,205316,3957.0027,N,11618.4834,E,4,05,77.5,23730.5,M,2051.2,M,,*79
2013/10/21 20:53:16
$GPGGA,205316,3957.0027,N,11618.4834,E,4,05,77.5,23730.5,M,2051.2,M,,*79

2013/10/21 20:53:17
$GPGGA,205317,3957.0029,N,11618.8115,E,3,11,87.0,58357.2,M,3369.1,M,,*
2013/10/21 20:53:17
$GPGGA,205317,3957.0029,N,11618.8115,E,3,11,87.0,58357.2,M,3369.1,M,,*7
2013/10/21 20:53:17
$GPGGA,205317,3957.0029,N,11618.8115,E,3,11,87.0,58357.2,M,3369.1,M,,*7C
2013/10/21 20:53:17
$GPGGA,205317,3957.0029,N,11618.8115,E,3,11,87.0,58357.2,M,3369.1,M,,*7C
2013/10/21 20:53:17
$GPGGA,205317,3957.0029,N,11618.8115,E,3,11,87.0,58357.2,M,3369.1,M,,*7C

2013/10/21 20:53:18
$GPGGA,205318,3957.0029,N,11618.1396,E,1,06,96.4,92980.6,M,4687.3,M,,*
2013/10/21 20:53:18
$GPGGA,205318,3957.0029,N,11618.1396,E,1,06,96.4,92980.6,M,4687.3,M,,*7
2013/10/21 20:53:18
$GPGGA,205318,3957.0029,N,11618.1396,E,1,06,96.4,92980.6,M,4687.3,M,,*71
2013/10/21 20:53:18
$GPGGA,205318,3957.0029,N,11618.1396,E,1,06,96.4,92980.6,M,4687.3,M,,*71
2013/10/21 20:53:18
$GPGGA,205318,3957.0029,N,11618.1396,E,1,06,96.4,92980.6,M,4687.3,M,,*71

2013/10/21 20:53:19
$GPGGA,205319,3957.0029,N,11618.4678,E,0,01,6.5,17607.5,M,6005.6,M,,*
2013/10/21 20:53:19
$GPGGA,205319,3957.0029,N,11618.4678,E,0,01,6.5,17607.5,M,6005.6,M,,*4
2013/10/21 20:53:19
$GPGGA,205319,3957.0029,N,11618.4678,E,0,01,6.5,17607.5,M,6005.6,M,,*4B
2013/10/21 20:53:19
$GPGGA,205319,3957.0029,N,11618.4678,E,0,01,6.5,17607.5,M,6005.6,M,,*4B
2013/10/21 20:53:19
$GPGGA,205319,3957.0029,N,11618.4678,E,0,01,6.5,17607.5,M,6005.6,M,,*4B

2013/10/21 20:53:20
$GPGGA,205320,3957.0032,N,11618.7959,E,4,07,15.9,52230.8,M,7323.5,M,,*
2013/10/21 20:53:20
$GPGGA,205320,3957.0032,N,11618.7959,E,4,07,15.9,52230.8,M,7323.5,M,,*7
2013/10/21 20:53:20
$GPGGA,205320,3957.0032,N,11618.7959,E,4,07,15.9,52230.8,M,7323.5,M,,*71
2013/10/21 20:53:20
$GPGGA,205320,3957.0032,N,11618.7959,E,4,07,15.9,52230.8,M,7323.5,M,,*71
2013/10/21 20:53:20
$GPGGA,205320,3957.0032,N,11618.7959,E,4,07,15.9,52230.8,M,7323.5,M,,*71

2013/10/21 20:53:21
$GPGGA,205321,3957.0032,N,11618.1240,E,2,02,25.3,86857.5,M,8641.7,M,,*
2013/10/21 20:53:21
$GPGGA,205321,3957.0032,N,11618.1240,E,2,02,25.3,86857.5,M,8641.7,M,,*7
2013/10/21 20:53:21
$GPGGA,205321,3957.0032,N,11618.1240,E,2,02,25.3,86857.5,M,8641.7,M,,*7C
2013/10/21 20:53:21
$GPGGA,205321,3957.0032,N,11618.1240,E,2,02,25.3,86857.5,M,8641.7,M,,*7C
2013/10/21 20:53:21
$GPGGA,205321,3957.0032,N,11618.1240,E,2,02,25.3,86857.5,M,8641.7,M,,*7C

2013/10/21 20:53:22
$GPGGA,205322,3957.0034,N,11618.4521,E,1,08,34.8,11481.1,M,9960.0,M,,*
2013/10/21 20:53:22
$GPGGA,205322,3957.0034,N,11618.4521,E,1,08,34.8,11481.1,M,9960.0,M,,*7
2013/10/21 20:53:22
$GPGGA,205322,3957.0034,N,11618.4521,E,1,08,34.8,11481.1,M,9960.0,M,,*79
2013/10/21 20:53:22
$GPGGA,205322,3957.0034,N,11618.4521,E,1,08,34.8,11481.1,M,9960.0,M,,*79
2013/10/21 20:53:23
$GPGGA,205322,3957.0034,N,11618.4521,E,1,08,34.8,11481.1,M,9960.0,M,,*79

2013/10/21 20:53:23
$GPGGA,205323,3957.0034,N,11618.7803,E,5,03,44.2,46107.8,M,278.4,M,,*
2013/10/21 20:53:23
$GPGGA,205323,3957.0034,N,11618.7803,E,5,03,44.2,46107.8,M,278.4,M,,*4
2013/10/21 20:53:23
$GPGGA,205323,3957.0034,N,11618.7803,E,5,03,44.2,46107.8,M,278.4,M,,*4B
2013/10/21 20:53:23
$GPGGA,205323,3957.0034,N,11618.7803,E,5,03,44.2,46107.8,M,278.4,M,,*4B
2013/10/21 20:53:23
$GPGGA,205323,3957.0034,N,11618.7803,E,5,03,44.2,46107.8,M,278.4,M,,*4B

2013/10/21 20:53:24
$GPGGA,205324,3957.0034,N,11618.1084,E,4,09,53.7,80734.5,M,1596.3,M,,*
2013/10/21 20:53:24
$GPGGA,205324,3957.0034,N,11618.1084,E,4,09,53.7,80734.5,M,1596.3,M,,*7
2013/10/21 20:53:24
$GPGGA,205324,3957.0034,N,11618.1084,E,4,09,53.7,80734.5,M,1596.3,M,,*75
2013/10/21 20:53:24
$GPGGA,205324,3957.0034,N,11618.1084,E,4,09,53.7,80734.5,M,1596.3,M,,*75
2013/10/21 20:53:24
$GPGGA,205324,3957.0034,N,11618.1084,E,4,09,53.7,80734.5,M,1596.3,M,,*75

2013/10/21 20:53:25
$GPGGA,205325,3957.0037,N,11618.4355,E,2,04,63.1,5358.0,M,2914.5,M,,*
2013/10/21 20:53:25
$GPGGA,205325,3957.0037,N,11618.4355,E,2,04,63.1,5358.0,M,2914.5,M,,*4
2013/10/21 20:53:25
$GPGGA,205325,3957.0037,N,11618.4355,E,2,04,63.1,5358.0,M,2914.5,M,,*46
2013/10/21 20:53:25
$GPGGA,205325,3957.0037,N,11618.4355,E,2,04,63.1,5358.0,M,2914.5,M,,*46
2013/10/21 20:53:25
$GPGGA,205325,3957.0037,N,11618.4355,E,2,04,63.1,5358.0,M,2914.5,M,,*46

2013/10/21 20:53:26
$GPGGA,205326,3957.0037,N,11618.7637,E,1,10,72.6,39984.8,M,4232.8,M,,*
2013/10/21 20:53:26
$GPGGA,205326,3957.0037,N,11618.7637,E,1,10,72.6,39984.8,M,4232.8,M,,*7
2013/10/21 20:53:26
$GPGGA,205326,3957.0037,N,11618.7637,E,1,10,72.6,39984.8,M,4232.8,M,,*7E
2013/10/21 20:53:26
$GPGGA,205326,3957.0037,N,11618.7637,E,1,10,72.6,39984.8,M,4232.8,M,,*7E
2013/10/21 20:53:26
$GPGGA,205326,3957.0037,N,11618.7637,E,1,10,72.6,39984.8,M,4232.8,M,,*7E

2013/10/21 20:53:27
$GPGGA,205327,3957.0039,N,11618.0918,E,5,05,82.0,74608.1,M,5551.0,M,,*
2013/10/21 20:53:27
$GPGGA,205327,3957.0039,N,11618.0918,E,5,05,82.0,74608.1,M,5551.0,M,,*7
2013/10/21 20:53:27
$GPGGA,205327,3957.0039,N,11618.0918,E,5,05,82.0,74608.1,M,5551.0,M,,*7D
2013/10/21 20:53:27
$GPGGA,205327,3957.0039,N,11618.0918,E,5,05,82.0,74608.1,M,5551.0,M,,*7D
2013/10/21 20:53:27
$GPGGA,205327,3957.0039,N,11618.0918,E,5,05,82.0,74608.1,M,5551.0,M,,*7D

2013/10/21 20:53:28
$GPGGA,205328,3957.0039,N,11618.4199,E,3,11,91.4,-765.0,M,6868.9,M,,*
2013/10/21 20:53:28
$GPGGA,205328,3957.0039,N,11618.4199,E,3,11,91.4,-765.0,M,6868.9,M,,*5
2013/10/21 20:53:28
$GPGGA,205328,3957.0039,N,11618.4199,E,3,11,91.4,-765.0,M,6868.9,M,,*5A
2013/10/21 20:53:28
$GPGGA,205328,3957.0039,N,11618.4199,E,3,11,91.4,-765.0,M,6868.9,M,,*5A
2013/10/21 20:53:28
$GPGGA,205328,3957.0039,N,11618.4199,E,3,11,91.4,-765.0,M,6868.9,M,,*5A

2013/10/21 20:53:29
$GPGGA,205329,3957.0042,N,11618.7480,E,2,06,1.5,33858.4,M,8187.2,M,,*
2013/10/21 20:53:29
$GPGGA,205329,3957.0042,N,11618.7480,E,2,06,1.5,33858.4,M,8187.2,M,,*4
2013/10/21 20:53:29
$GPGGA,205329,3957.0042,N,11618.7480,E,2,06,1.5,33858.4,M,8187.2,M,,*43
2013/10/21 20:53:29
$GPGGA,205329,3957.0042,N,11618.7480,E,2,06,1.5,33858.4,M,8187.2,M,,*43
2013/10/21 20:53:29
$GPGGA,205329,3957.0042,N,11618.7480,E,2,06,1.5,33858.4,M,8187.2,M,,*43

2013/10/21 20:53:30
$GPGGA,205330,3957.0042,N,11618.0762,E,0,01,10.9,68485.1,M,9505.4,M,,*
2013/10/21 20:53:30
$GPGGA,205330,3957.0042,N,11618.0762,E,0,01,10.9,68485.1,M,9505.4,M,,*7
2013/10/21 20:53:30
$GPGGA,205330,3957.0042,N,11618.0762,E,0,01,10.9,68485.1,M,9505.4,M,,*74
2013/10/21 20:53:30
$GPGGA,205330,3957.0042,N,11618.0762,E,0,01,10.9,68485.1,M,9505.4,M,,*74
2013/10/21 20:53:30
$GPGGA,205330,3957.0042,N,11618.0762,E,0,01,10.9,68485.1,M,9505.4,M,,*74

2013/10/21 20:53:31
$GPGGA,205331,3957.0042,N,11618.4043,E,5,07,20.4,-6888.0,M,-176.5,M,,*
2013/10/21 20:53:31
$GPGGA,205331,3957.0042,N,11618.4043,E,5,07,20.4,-6888.0,M,-176.5,M,,*7
2013/10/21 20:53:31
$GPGGA,205331,3957.0042,N,11618.4043,E,5,07,20.4,-6888.0,M,-176.5,M,,*78
2013/10/21 20:53:31
$GPGGA,205331,3957.0042,N,11618.4043,E,5,07,20.4,-6888.0,M,-176.5,M,,*78
2013/10/21 20:53:31
$GPGGA,205331,3957.0042,N,11618.4043,E,5,07,20.4,-6888.0,M,-176.5,M,,*78

2013/10/21 20:53:32
$GPGGA,205332,3957.0044,N,11618.7324,E,3,02,29.8,27735.3,M,1141.8,M,,*
2013/10/21 20:53:32
$GPGGA,205332,3957.0044,N,11618.7324,E,3,02,29.8,27735.3,M,1141.8,M,,*7
2013/10/21 20:53:32
$GPGGA,205332,3957.0044,N,11618.7324,E,3,02,29.8,27735.3,M,1141.8,M,,*7B
2013/10/21 20:53:32
$GPGGA,205332,3957.0044,N,11618.7324,E,3,02,29.8,27735.3,M,1141.8,M,,*7B
2013/10/21 20:53:32
$GPGGA,205332,3957.0044,N,11618.7324,E,3,02,29.8,27735.3,M,1141.8,M,,*7B

2013/10/21 20:53:33
$GPGGA,205333,3957.0044,N,11618.0605,E,1,08,39.2,62362.0,M,2460.0,M,,*
2013/10/21 20:53:33
